[{"started_at": "2021-06-01 00:26:47.506000+00:00", "ended_at": "2021-06-01 00:32:34.722000+00:00", "duration": 347, "start_station_id": "1098", "start_station_name": "Marchmont Crescent", "start_station_description": "Corner of Marchmont Road", "start_station_latitude": 55.936431918148195, "start_station_longitude": -3.194150044314256, "end_station_id": "1727", "end_station_name": "Causewayside", "end_station_description": "Outside National Library of Scotland", "end_station_latitude": 55.93650603148236, "end_station_longitude": -3.1801663476151134}, {"started_at": "2021-06-01 00:27:10.750000+00:00", "ended_at": "2021-06-01 00:32:48.367000+00:00", "duration": 337, "start_station_id": "1098", "start_station_name": "Marchmont Crescent", "start_station_description": "Corner of Marchmont Road", "start_station_latitude": 55.936431918148195, "start_station_longitude": -3.194150044314256, "end_station_id": "1727", "end_station_name": "Causewayside", "end_station_description": "Outside National Library of Scotland", "end_station_latitude": 55.93650603148236, "end_station_longitude": -3.1801663476151134}, {"started_at": "2021-06-01 00:35:15.374000+00:00", "ended_at": "2021-06-01 02:01:45.894000+00:00", "duration": 5190, "start_station_id": "1820", "start_station_name": "Heriot Watt - Student Accommodation", "start_station_description": "Outside Anna Macleod Halls", "start_station_latitude": 55.90841344459825, "start_station_longitude": -3.3287835258168874, "end_station_id": "1820", "end_station_name": "Heriot Watt - Student Accommodation", "end_station_description": "Outside Anna Macleod Halls", "end_station_latitude": 55.90841344459825, "end_station_longitude": -3.3287835258168874}, {"started_at": "2021-06-01 00:57:53.839000+00:00", "ended_at": "2021-06-01 01:16:41.334000+00:00", "duration": 1127, "start_station_id": "1769", "start_station_name": "Brunswick Place", "start_station_description": "Corner of Elm Row/Brunswick Street", "start_station_latitude": 55.96085174106396, "start_station_longitude": -3.180985762469163, "end_station_id": "1025", "end_station_name": "Dundee Terrace", "end_station_description": "Corner of Dundee Street & Dundee Terrace", "end_station_latitude": 55.93970989541296, "end_station_longitude": -3.2205889336679547}, {"started_at": "2021-06-01 01:32:53.824000+00:00", "ended_at": "2021-06-01 02:10:54.308000+00:00", "duration": 2280, "start_station_id": "1039", "start_station_name": "Lothian Road", "start_station_description": "Outside the Usher Hall", "start_station_latitude": 55.947409199207115, "start_station_longitude": -3.2057654971365537, "end_station_id": "358", "end_station_name": "Leith Walk", "end_station_description": "Leith Walk opposite Dalmeny Street", "end_station_latitude": 55.96517649040763, "end_station_longitude": -3.1761801702076298}, {"started_at": "2021-06-01 02:07:23.096000+00:00", "ended_at": "2021-06-01 02:27:54.238000+00:00", "duration": 1231, "start_station_id": "1823", "start_station_name": "Boroughmuir", "start_station_description": "Off Gibson Terrace", "start_station_latitude": 55.94007146917616, "start_station_longitude": -3.215335840688084, "end_station_id": "265", "end_station_name": "Meadows East", "end_station_description": "Between Melville Terrace and Sciennes", "end_station_latitude": 55.939809466328285, "end_station_longitude": -3.182738850746432}, {"started_at": "2021-06-01 02:07:54.616000+00:00", "ended_at": "2021-06-01 02:27:49.135000+00:00", "duration": 1194, "start_station_id": "1823", "start_station_name": "Boroughmuir", "start_station_description": "Off Gibson Terrace", "start_station_latitude": 55.94007146917616, "start_station_longitude": -3.215335840688084, "end_station_id": "265", "end_station_name": "Meadows East", "end_station_description": "Between Melville Terrace and Sciennes", "end_station_latitude": 55.939809466328285, "end_station_longitude": -3.182738850746432}, {"started_at": "2021-06-01 02:10:28.385000+00:00", "ended_at": "2021-06-01 02:17:36.704000+00:00", "duration": 428, "start_station_id": "1823", "start_station_name": "Boroughmuir", "start_station_description": "Off Gibson Terrace", "start_station_latitude": 55.94007146917616, "start_station_longitude": -3.215335840688084, "end_station_id": "1024", "end_station_name": "Meadow Place", "end_station_description": "End of Meadow Place", "end_station_latitude": 55.940237631689435, "end_station_longitude": -3.194640214184801}, {"started_at": "2021-06-01 03:34:17.478000+00:00", "ended_at": "2021-06-01 03:43:18.167000+00:00", "duration": 540, "start_station_id": "264", "start_station_name": "Pollock Halls", "start_station_description": "Pollock Halls Entrance", "start_station_latitude": 55.94008064125911, "start_station_longitude": -3.171746866852459, "end_station_id": "1798", "end_station_name": "Chambers Street", "end_station_description": "Outside National Museum", "end_station_latitude": 55.94760044619224, "end_station_longitude": -3.1889197367352153}, {"started_at": "2021-06-01 03:38:24.481000+00:00", "ended_at": "2021-06-01 03:50:28.767000+00:00", "duration": 724, "start_station_id": "254", "start_station_name": "Kings Building 3", "start_station_description": "Kings Building House", "start_station_latitude": 55.923478807846635, "start_station_longitude": -3.1753845849070785, "end_station_id": "1727", "end_station_name": "Causewayside", "end_station_description": "Outside National Library of Scotland", "end_station_latitude": 55.93650603148236, "end_station_longitude": -3.1801663476151134}, {"started_at": "2021-06-01 04:46:24.076000+00:00", "ended_at": "2021-06-01 04:55:30.403000+00:00", "duration": 546, "start_station_id": "1102", "start_station_name": "Haymarket Station", "start_station_description": "Haymarket Station", "start_station_latitude": 55.94556945067266, "start_station_longitude": -3.21818468327956, "end_station_id": "1091", "end_station_name": "Holyrood Road", "end_station_description": "Opposite St Leonards Land", "end_station_latitude": 55.94955950619123, "end_station_longitude": -3.180413257527789}, {"started_at": "2021-06-01 04:47:30.871000+00:00", "ended_at": "2021-06-01 04:53:46.242000+00:00", "duration": 375, "start_station_id": "265", "start_station_name": "Meadows East", "start_station_description": "Between Melville Terrace and Sciennes", "start_station_latitude": 55.939809466328285, "start_station_longitude": -3.182738850746432, "end_station_id": "183", "end_station_name": "Waverley Bridge", "end_station_description": "near the top of the South ramp", "end_station_latitude": 55.951980756193535, "end_station_longitude": -3.1918903325579038}, {"started_at": "2021-06-01 04:49:59.167000+00:00", "ended_at": "2021-06-01 04:52:42.248000+00:00", "duration": 163, "start_station_id": "1748", "start_station_name": "Colinton Road", "start_station_description": "Near Napier University Merchiston Campus", "start_station_latitude": 55.933416359161036, "start_station_longitude": -3.21239711224257, "end_station_id": "1744", "end_station_name": "Morningside Road", "end_station_description": "Corner of Morningside Park, beside M&S", "end_station_latitude": 55.927985349796536, "end_station_longitude": -3.209749771944871}, {"started_at": "2021-06-01 04:53:33.473000+00:00", "ended_at": "2021-06-01 05:01:44.824000+00:00", "duration": 491, "start_station_id": "1050", "start_station_name": "EICC", "start_station_description": "Outside Edinburgh International Conference Centre", "start_station_latitude": 55.94607055533778, "start_station_longitude": -3.2103963310007657, "end_station_id": "183", "end_station_name": "Waverley Bridge", "end_station_description": "near the top of the South ramp", "end_station_latitude": 55.951980756193535, "end_station_longitude": -3.1918903325579038}, {"started_at": "2021-06-01 04:53:37.668000+00:00", "ended_at": "2021-06-01 05:02:29.689000+00:00", "duration": 532, "start_station_id": "1050", "start_station_name": "EICC", "start_station_description": "Outside Edinburgh International Conference Centre", "start_station_latitude": 55.94607055533778, "start_station_longitude": -3.2103963310007657, "end_station_id": "183", "end_station_name": "Waverley Bridge", "end_station_description": "near the top of the South ramp", "end_station_latitude": 55.951980756193535, "end_station_longitude": -3.1918903325579038}, {"started_at": "2021-06-01 04:59:10.632000+00:00", "ended_at": "2021-06-01 05:10:41.015000+00:00", "duration": 690, "start_station_id": "1038", "start_station_name": "South Trinity Road", "start_station_description": "Corner of South Trinity Road and Ferry Road", "start_station_latitude": 55.97132539148155, "start_station_longitude": -3.207963567424258, "end_station_id": "358", "end_station_name": "Leith Walk", "end_station_description": "Leith Walk opposite Dalmeny Street", "end_station_latitude": 55.96517649040763, "end_station_longitude": -3.1761801702076298}, {"started_at": "2021-06-01 05:36:06.171000+00:00", "ended_at": "2021-06-01 05:44:23.595000+00:00", "duration": 497, "start_station_id": "1025", "start_station_name": "Dundee Terrace", "start_station_description": "Corner of Dundee Street & Dundee Terrace", "start_station_latitude": 55.93970989541296, "start_station_longitude": -3.2205889336679547, "end_station_id": "1757", "end_station_name": "Meggetland", "end_station_description": "Meggetland Sports Complex", "end_station_latitude": 55.92758664038103, "end_station_longitude": -3.2336710530441906}, {"started_at": "2021-06-01 05:38:40.769000+00:00", "ended_at": "2021-06-01 05:45:56.180000+00:00", "duration": 435, "start_station_id": "358", "start_station_name": "Leith Walk", "start_station_description": "Leith Walk opposite Dalmeny Street", "start_station_latitude": 55.96517649040763, "start_station_longitude": -3.1761801702076298, "end_station_id": "250", "end_station_name": "Victoria Quay", "end_station_description": "Entrance to Scottish Government Office", "end_station_latitude": 55.977617152546344, "end_station_longitude": -3.1741263194576277}, {"started_at": "2021-06-01 05:51:10.871000+00:00", "ended_at": "2021-06-01 06:06:44.156000+00:00", "duration": 933, "start_station_id": "1096", "start_station_name": "West Crosscauseway", "start_station_description": "On island next to Buccleuch Street", "start_station_latitude": 55.9438359841253, "start_station_longitude": -3.1849514084976818, "end_station_id": "254", "end_station_name": "Kings Building 3", "end_station_description": "Kings Building House", "end_station_latitude": 55.923478807846635, "end_station_longitude": -3.1753845849070785}, {"started_at": "2021-06-01 05:58:40.302000+00:00", "ended_at": "2021-06-01 06:18:22.095000+00:00", "duration": 1181, "start_station_id": "1738", "start_station_name": "Wester Coates Terrace", "start_station_description": "Junction with Roseburn Terrace", "start_station_latitude": 55.94564841884953, "start_station_longitude": -3.2318471509140636, "end_station_id": "358", "end_station_name": "Leith Walk", "end_station_description": "Leith Walk opposite Dalmeny Street", "end_station_latitude": 55.96517649040763, "end_station_longitude": -3.1761801702076298}, {"started_at": "2021-06-01 06:07:08.366000+00:00", "ended_at": "2021-06-01 06:26:10.759000+00:00", "duration": 1142, "start_station_id": "1823", "start_station_name": "Boroughmuir", "start_station_description": "Off Gibson Terrace", "start_station_latitude": 55.94007146917616, "start_station_longitude": -3.215335840688084, "end_station_id": "1814", "end_station_name": "Abbeyhill", "end_station_description": "Near Abbey Mount", "end_station_latitude": 55.95524788917224, "end_station_longitude": -3.1722162800950704}, {"started_at": "2021-06-01 06:28:47.940000+00:00", "ended_at": "2021-06-01 06:49:21.988000+00:00", "duration": 1234, "start_station_id": "1727", "start_station_name": "Causewayside", "start_station_description": "Outside National Library of Scotland", "start_station_latitude": 55.93650603148236, "start_station_longitude": -3.1801663476151134, "end_station_id": "1753", "end_station_name": "Waitrose Comely Bank", "end_station_description": "On Fettes Avenue next to Waitrose", "end_station_latitude": 55.959536249717715, "end_station_longitude": -3.223434402338853}, {"started_at": "2021-06-01 06:29:04.598000+00:00", "ended_at": "2021-06-01 06:33:57.793000+00:00", "duration": 293, "start_station_id": "1102", "start_station_name": "Haymarket Station", "start_station_description": "Haymarket Station", "start_station_latitude": 55.94556945067266, "start_station_longitude": -3.21818468327956, "end_station_id": "249", "end_station_name": "Fountainbridge", "end_station_description": "Fountainbridge by Gardner's Crescent", "end_station_latitude": 55.94335692764551, "end_station_longitude": -3.2092475016246453}, {"started_at": "2021-06-01 06:36:05.434000+00:00", "ended_at": "2021-06-01 06:41:18.519000+00:00", "duration": 313, "start_station_id": "249", "start_station_name": "Fountainbridge", "start_station_description": "Fountainbridge by Gardner's Crescent", "start_station_latitude": 55.94335692764551, "start_station_longitude": -3.2092475016246453, "end_station_id": "1051", "end_station_name": "Warrender Park Road", "end_station_description": "On corner with Spottiswoode Street", "end_station_latitude": 55.93836921723555, "end_station_longitude": -3.1980326885466184}, {"started_at": "2021-06-01 06:36:44.339000+00:00", "ended_at": "2021-06-01 06:56:10.153000+00:00", "duration": 1165, "start_station_id": "1814", "start_station_name": "Abbeyhill", "start_station_description": "Near Abbey Mount", "start_station_latitude": 55.95524788917224, "start_station_longitude": -3.1722162800950704, "end_station_id": "1756", "end_station_name": "Western General Hospital", "end_station_description": "Porterfield Road", "end_station_latitude": 55.96283984266853, "end_station_longitude": -3.234135938375289}, {"started_at": "2021-06-01 06:42:23.759000+00:00", "ended_at": "2021-06-01 06:55:46.955000+00:00", "duration": 803, "start_station_id": "250", "start_station_name": "Victoria Quay", "start_station_description": "Entrance to Scottish Government Office", "start_station_latitude": 55.977617152546344, "start_station_longitude": -3.1741263194576277, "end_station_id": "1038", "end_station_name": "South Trinity Road", "end_station_description": "Corner of South Trinity Road and Ferry Road", "end_station_latitude": 55.97132539148155, "end_station_longitude": -3.207963567424258}, {"started_at": "2021-06-01 06:43:32.170000+00:00", "ended_at": "2021-06-01 06:56:05.056000+00:00", "duration": 752, "start_station_id": "1102", "start_station_name": "Haymarket Station", "start_station_description": "Haymarket Station", "start_station_latitude": 55.94556945067266, "start_station_longitude": -3.21818468327956, "end_station_id": "1730", "end_station_name": "East London Street", "end_station_description": "Outside St Mary's Primary School", "end_station_latitude": 55.95995414501485, "end_station_longitude": -3.1871977585476543}, {"started_at": "2021-06-01 07:04:49.002000+00:00", "ended_at": "2021-06-01 08:03:07.841000+00:00", "duration": 3498, "start_station_id": "358", "start_station_name": "Leith Walk", "start_station_description": "Leith Walk opposite Dalmeny Street", "start_station_latitude": 55.96517649040763, "start_station_longitude": -3.1761801702076298, "end_station_id": "358", "end_station_name": "Leith Walk", "end_station_description": "Leith Walk opposite Dalmeny Street", "end_station_latitude": 55.96517649040763, "end_station_longitude": -3.1761801702076298}, {"started_at": "2021-06-01 07:05:00.183000+00:00", "ended_at": "2021-06-01 07:21:52.986000+00:00", "duration": 1012, "start_station_id": "1051", "start_station_name": "Warrender Park Road", "start_station_description": "On corner with Spottiswoode Street", "start_station_latitude": 55.93836921723555, "start_station_longitude": -3.1980326885466184, "end_station_id": "1737", "end_station_name": "Inverleith Row", "end_station_description": "Corner with Inverleith Terrace", "end_station_latitude": 55.964117879889585, "end_station_longitude": -3.2020947474163677}, {"started_at": "2021-06-01 07:10:25.659000+00:00", "ended_at": "2021-06-01 07:26:47.162000+00:00", "duration": 981, "start_station_id": "253", "start_station_name": "Kings Building 2", "start_station_description": "Sanderson Building", "start_station_latitude": 55.92320215516664, "start_station_longitude": -3.1716462453634904, "end_station_id": "183", "end_station_name": "Waverley Bridge", "end_station_description": "near the top of the South ramp", "end_station_latitude": 55.951980756193535, "end_station_longitude": -3.1918903325579038}, {"started_at": "2021-06-01 07:26:49.071000+00:00", "ended_at": "2021-06-01 07:32:38.220000+00:00", "duration": 349, "start_station_id": "265", "start_station_name": "Meadows East", "start_station_description": "Between Melville Terrace and Sciennes", "start_station_latitude": 55.939809466328285, "start_station_longitude": -3.182738850746432, "end_station_id": "265", "end_station_name": "Meadows East", "end_station_description": "Between Melville Terrace and Sciennes", "end_station_latitude": 55.939809466328285, "end_station_longitude": -3.182738850746432}, {"started_at": "2021-06-01 07:26:58.057000+00:00", "ended_at": "2021-06-01 07:38:08.030000+00:00", "duration": 669, "start_station_id": "1024", "start_station_name": "Meadow Place", "start_station_description": "End of Meadow Place", "start_station_latitude": 55.940237631689435, "start_station_longitude": -3.194640214184801, "end_station_id": "1726", "end_station_name": "Simon Square", "end_station_description": "Between Pleasance and Nicholson Street", "end_station_latitude": 55.94485886752089, "end_station_longitude": -3.182589723460069}, {"started_at": "2021-06-01 07:28:08.476000+00:00", "ended_at": "2021-06-01 07:41:14.603000+00:00", "duration": 786, "start_station_id": "1823", "start_station_name": "Boroughmuir", "start_station_description": "Off Gibson Terrace", "start_station_latitude": 55.94007146917616, "start_station_longitude": -3.215335840688084, "end_station_id": "1757", "end_station_name": "Meggetland", "end_station_description": "Meggetland Sports Complex", "end_station_latitude": 55.92758664038103, "end_station_longitude": -3.2336710530441906}, {"started_at": "2021-06-01 07:29:21.003000+00:00", "ended_at": "2021-06-01 07:47:27.691000+00:00", "duration": 1086, "start_station_id": "254", "start_station_name": "Kings Building 3", "start_station_description": "Kings Building House", "start_station_latitude": 55.923478807846635, "start_station_longitude": -3.1753845849070785, "end_station_id": "189", "end_station_name": "City Chambers", "end_station_description": "City Chambers Quadrangle", "end_station_latitude": 55.95010933017899, "end_station_longitude": -3.190257770093808}, {"started_at": "2021-06-01 07:34:34.802000+00:00", "ended_at": "2021-06-01 07:54:52.209000+00:00", "duration": 1217, "start_station_id": "1737", "start_station_name": "Inverleith Row", "start_station_description": "Corner with Inverleith Terrace", "start_station_latitude": 55.964117879889585, "start_station_longitude": -3.2020947474163677, "end_station_id": "1051", "end_station_name": "Warrender Park Road", "end_station_description": "On corner with Spottiswoode Street", "end_station_latitude": 55.93836921723555, "end_station_longitude": -3.1980326885466184}, {"started_at": "2021-06-01 07:38:22.449000+00:00", "ended_at": "2021-06-01 07:55:06.342000+00:00", "duration": 1003, "start_station_id": "1726", "start_station_name": "Simon Square", "start_station_description": "Between Pleasance and Nicholson Street", "start_station_latitude": 55.94485886752089, "start_station_longitude": -3.182589723460069, "end_station_id": "253", "end_station_name": "Kings Building 2", "end_station_description": "Sanderson Building", "end_station_latitude": 55.92320215516664, "end_station_longitude": -3.1716462453634904}, {"started_at": "2021-06-01 07:39:09.710000+00:00", "ended_at": "2021-06-01 07:48:32.421000+00:00", "duration": 562, "start_station_id": "264", "start_station_name": "Pollock Halls", "start_station_description": "Pollock Halls Entrance", "start_station_latitude": 55.94008064125911, "start_station_longitude": -3.171746866852459, "end_station_id": "1017", "end_station_name": "Crichton Street", "end_station_description": "East end of street", "end_station_latitude": 55.94478427951007, "end_station_longitude": -3.186906245433761}, {"started_at": "2021-06-01 07:39:47.370000+00:00", "ended_at": "2021-06-01 08:10:10.742000+00:00", "duration": 1823, "start_station_id": "358", "start_station_name": "Leith Walk", "start_station_description": "Leith Walk opposite Dalmeny Street", "start_station_latitude": 55.96517649040763, "start_station_longitude": -3.1761801702076298, "end_station_id": "1727", "end_station_name": "Causewayside", "end_station_description": "Outside National Library of Scotland", "end_station_latitude": 55.93650603148236, "end_station_longitude": -3.1801663476151134}, {"started_at": "2021-06-01 07:43:12.288000+00:00", "ended_at": "2021-06-01 07:58:55.299000+00:00", "duration": 943, "start_station_id": "1737", "start_station_name": "Inverleith Row", "start_station_description": "Corner with Inverleith Terrace", "start_station_latitude": 55.964117879889585, "start_station_longitude": -3.2020947474163677, "end_station_id": "1756", "end_station_name": "Western General Hospital", "end_station_description": "Porterfield Road", "end_station_latitude": 55.96283984266853, "end_station_longitude": -3.234135938375289}, {"started_at": "2021-06-01 07:44:25.285000+00:00", "ended_at": "2021-06-01 08:16:06.950000+00:00", "duration": 1901, "start_station_id": "1091", "start_station_name": "Holyrood Road", "start_station_description": "Opposite St Leonards Land", "start_station_latitude": 55.94955950619123, "start_station_longitude": -3.180413257527789, "end_station_id": "252", "end_station_name": "Kings Buildings 1", "end_station_description": "Grant Institute", "end_station_latitude": 55.92418540667696, "end_station_longitude": -3.173830830087809}, {"started_at": "2021-06-01 07:45:23.963000+00:00", "ended_at": "2021-06-01 07:55:05.993000+00:00", "duration": 582, "start_station_id": "1024", "start_station_name": "Meadow Place", "start_station_description": "End of Meadow Place", "start_station_latitude": 55.940237631689435, "start_station_longitude": -3.194640214184801, "end_station_id": "2268", "end_station_name": "Picardy Place", "end_station_description": "Outside Omni Centre", "end_station_latitude": 55.95653524179326, "end_station_longitude": -3.1862476120746805}, {"started_at": "2021-06-01 07:52:41.994000+00:00", "ended_at": "2021-06-01 07:59:10.789000+00:00", "duration": 388, "start_station_id": "1093", "start_station_name": "Belford Road", "start_station_description": "Outside Scottish National Gallery of Modern Art", "start_station_latitude": 55.95197357717703, "start_station_longitude": -3.226124804664096, "end_station_id": "1050", "end_station_name": "EICC", "end_station_description": "Outside Edinburgh International Conference Centre", "end_station_latitude": 55.94607055533778, "end_station_longitude": -3.2103963310007657}, {"started_at": "2021-06-01 07:53:41.833000+00:00", "ended_at": "2021-06-01 08:07:01.741000+00:00", "duration": 799, "start_station_id": "1823", "start_station_name": "Boroughmuir", "start_station_description": "Off Gibson Terrace", "start_station_latitude": 55.94007146917616, "start_station_longitude": -3.215335840688084, "end_station_id": "289", "end_station_name": "Castle Street", "end_station_description": "Near Rose Street", "end_station_latitude": 55.951500737349754, "end_station_longitude": -3.2031839065252825}, {"started_at": "2021-06-01 07:53:51.722000+00:00", "ended_at": "2021-06-01 08:58:49.145000+00:00", "duration": 3897, "start_station_id": "250", "start_station_name": "Victoria Quay", "start_station_description": "Entrance to Scottish Government Office", "start_station_latitude": 55.977617152546344, "start_station_longitude": -3.1741263194576277, "end_station_id": "250", "end_station_name": "Victoria Quay", "end_station_description": "Entrance to Scottish Government Office", "end_station_latitude": 55.977617152546344, "end_station_longitude": -3.1741263194576277}, {"started_at": "2021-06-01 07:55:55.552000+00:00", "ended_at": "2021-06-01 08:20:09.512000+00:00", "duration": 1453, "start_station_id": "1025", "start_station_name": "Dundee Terrace", "start_station_description": "Corner of Dundee Street & Dundee Terrace", "start_station_latitude": 55.93970989541296, "start_station_longitude": -3.2205889336679547, "end_station_id": "1025", "end_station_name": "Dundee Terrace", "end_station_description": "Corner of Dundee Street & Dundee Terrace", "end_station_latitude": 55.93970989541296, "end_station_longitude": -3.2205889336679547}, {"started_at": "2021-06-01 08:02:05.904000+00:00", "ended_at": "2021-06-01 08:14:47.851000+00:00", "duration": 761, "start_station_id": "1798", "start_station_name": "Chambers Street", "start_station_description": "Outside National Museum", "start_station_latitude": 55.94760044619224, "start_station_longitude": -3.1889197367352153, "end_station_id": "1763", "end_station_name": "Comely Bank Road", "end_station_description": "Outside Raeburn Place Sports Ground", "end_station_latitude": 55.95941012836135, "end_station_longitude": -3.2156613606136943}, {"started_at": "2021-06-01 08:09:54.086000+00:00", "ended_at": "2021-06-01 08:37:59.818000+00:00", "duration": 1685, "start_station_id": "1092", "start_station_name": "Dalry Road Lidl", "start_station_description": "", "start_station_latitude": 55.94179129688128, "start_station_longitude": -3.2224153095964994, "end_station_id": "1824", "end_station_name": "Duke Street", "end_station_description": "Junction with Easter Road", "end_station_latitude": 55.96901164826488, "end_station_longitude": -3.16739470303429}, {"started_at": "2021-06-01 08:10:13.459000+00:00", "ended_at": "2021-06-01 08:29:18.566000+00:00", "duration": 1145, "start_station_id": "2268", "start_station_name": "Picardy Place", "start_station_description": "Outside Omni Centre", "start_station_latitude": 55.95653524179326, "start_station_longitude": -3.1862476120746805, "end_station_id": "253", "end_station_name": "Kings Building 2", "end_station_description": "Sanderson Building", "end_station_latitude": 55.92320215516664, "end_station_longitude": -3.1716462453634904}, {"started_at": "2021-06-01 08:19:24.679000+00:00", "ended_at": "2021-06-01 08:20:49.495000+00:00", "duration": 84, "start_station_id": "1727", "start_station_name": "Causewayside", "start_station_description": "Outside National Library of Scotland", "start_station_latitude": 55.93650603148236, "start_station_longitude": -3.1801663476151134, "end_station_id": "1727", "end_station_name": "Causewayside", "end_station_description": "Outside National Library of Scotland", "end_station_latitude": 55.93650603148236, "end_station_longitude": -3.1801663476151134}, {"started_at": "2021-06-01 08:21:22.702000+00:00", "ended_at": "2021-06-01 08:41:48.278000+00:00", "duration": 1225, "start_station_id": "1727", "start_station_name": "Causewayside", "start_station_description": "Outside National Library of Scotland", "start_station_latitude": 55.93650603148236, "start_station_longitude": -3.1801663476151134, "end_station_id": "1728", "end_station_name": "Portobello - Kings Road", "end_station_description": "Foot of Kings Road next to the promenade", "end_station_latitude": 55.957915406923476, "end_station_longitude": -3.1183320420902874}, {"started_at": "2021-06-01 08:24:01.982000+00:00", "ended_at": "2021-06-01 08:41:48.608000+00:00", "duration": 1066, "start_station_id": "1025", "start_station_name": "Dundee Terrace", "start_station_description": "Corner of Dundee Street & Dundee Terrace", "start_station_latitude": 55.93970989541296, "start_station_longitude": -3.2205889336679547, "end_station_id": "253", "end_station_name": "Kings Building 2", "end_station_description": "Sanderson Building", "end_station_latitude": 55.92320215516664, "end_station_longitude": -3.1716462453634904}, {"started_at": "2021-06-01 08:26:29.559000+00:00", "ended_at": "2021-06-01 08:33:53.978000+00:00", "duration": 444, "start_station_id": "1051", "start_station_name": "Warrender Park Road", "start_station_description": "On corner with Spottiswoode Street", "start_station_latitude": 55.93836921723555, "start_station_longitude": -3.1980326885466184, "end_station_id": "1019", "end_station_name": "Grassmarket", "end_station_description": "West end of Grassmarket", "end_station_latitude": 55.947097278583385, "end_station_longitude": -3.1972457326126005}, {"started_at": "2021-06-01 08:37:03.901000+00:00", "ended_at": "2021-06-01 08:47:42.716000+00:00", "duration": 638, "start_station_id": "1025", "start_station_name": "Dundee Terrace", "start_station_description": "Corner of Dundee Street & Dundee Terrace", "start_station_latitude": 55.93970989541296, "start_station_longitude": -3.2205889336679547, "end_station_id": "1019", "end_station_name": "Grassmarket", "end_station_description": "West end of Grassmarket", "end_station_latitude": 55.947097278583385, "end_station_longitude": -3.1972457326126005}, {"started_at": "2021-06-01 08:39:13.526000+00:00", "ended_at": "2021-06-01 08:50:17.916000+00:00", "duration": 664, "start_station_id": "349", "start_station_name": "Orchard Brae House", "start_station_description": "Outside Orchard Brae House on Queensferry Road", "start_station_latitude": 55.95508276879095, "start_station_longitude": -3.2236342639564555, "end_station_id": "289", "end_station_name": "Castle Street", "end_station_description": "Near Rose Street", "end_station_latitude": 55.951500737349754, "end_station_longitude": -3.2031839065252825}, {"started_at": "2021-06-01 08:39:56.800000+00:00", "ended_at": "2021-06-01 10:45:01.054000+00:00", "duration": 7504, "start_station_id": "2268", "start_station_name": "Picardy Place", "start_station_description": "Outside Omni Centre", "start_station_latitude": 55.95653524179326, "start_station_longitude": -3.1862476120746805, "end_station_id": "1770", "end_station_name": "Ellersly Road", "end_station_description": "Corner with A8 Corstorphine Road at Western Terrace", "end_station_latitude": 55.945045875212095, "end_station_longitude": -3.250881447188249}, {"started_at": "2021-06-01 08:40:21.466000+00:00", "ended_at": "2021-06-01 08:59:07.072000+00:00", "duration": 1125, "start_station_id": "1051", "start_station_name": "Warrender Park Road", "start_station_description": "On corner with Spottiswoode Street", "start_station_latitude": 55.93836921723555, "start_station_longitude": -3.1980326885466184, "end_station_id": "1721", "end_station_name": "Tollcross", "end_station_description": "Outside Piccolinos off Lauriston Place", "end_station_latitude": 55.944248052468346, "end_station_longitude": -3.2031045991104747}, {"started_at": "2021-06-01 08:43:31.662000+00:00", "ended_at": "2021-06-01 09:03:20.268000+00:00", "duration": 1188, "start_station_id": "183", "start_station_name": "Waverley Bridge", "start_station_description": "near the top of the South ramp", "start_station_latitude": 55.951980756193535, "start_station_longitude": -3.1918903325579038, "end_station_id": "1739", "end_station_name": "Edinburgh Royal Infirmary", "end_station_description": "Front of new Sick Kids Hospital", "end_station_latitude": 55.92135417116336, "end_station_longitude": -3.1369712992544976}, {"started_at": "2021-06-01 08:48:38.576000+00:00", "ended_at": "2021-06-01 09:02:39.229000+00:00", "duration": 840, "start_station_id": "253", "start_station_name": "Kings Building 2", "start_station_description": "Sanderson Building", "start_station_latitude": 55.92320215516664, "start_station_longitude": -3.1716462453634904, "end_station_id": "1096", "end_station_name": "West Crosscauseway", "end_station_description": "On island next to Buccleuch Street", "end_station_latitude": 55.9438359841253, "end_station_longitude": -3.1849514084976818}, {"started_at": "2021-06-01 09:06:23.660000+00:00", "ended_at": "2021-06-01 09:35:23.701000+00:00", "duration": 1740, "start_station_id": "183", "start_station_name": "Waverley Bridge", "start_station_description": "near the top of the South ramp", "start_station_latitude": 55.951980756193535, "start_station_longitude": -3.1918903325579038, "end_station_id": "259", "end_station_name": "St Andrew Square", "end_station_description": "North East corner", "end_station_latitude": 55.95490573198223, "end_station_longitude": -3.192443756949956}, {"started_at": "2021-06-01 09:07:51.982000+00:00", "ended_at": "2021-06-01 09:37:18.419000+00:00", "duration": 1766, "start_station_id": "1728", "start_station_name": "Portobello - Kings Road", "start_station_description": "Foot of Kings Road next to the promenade", "start_station_latitude": 55.957915406923476, "start_station_longitude": -3.1183320420902874, "end_station_id": "265", "end_station_name": "Meadows East", "end_station_description": "Between Melville Terrace and Sciennes", "end_station_latitude": 55.939809466328285, "end_station_longitude": -3.182738850746432}, {"started_at": "2021-06-01 09:28:57.732000+00:00", "ended_at": "2021-06-01 09:42:34.305000+00:00", "duration": 816, "start_station_id": "1729", "start_station_name": "McDonald Road", "start_station_description": "Next to Fire Station", "start_station_latitude": 55.9640310527501, "start_station_longitude": -3.1851753729504253, "end_station_id": "1756", "end_station_name": "Western General Hospital", "end_station_description": "Porterfield Road", "end_station_latitude": 55.96283984266853, "end_station_longitude": -3.234135938375289}, {"started_at": "2021-06-01 09:29:43.736000+00:00", "ended_at": "2021-06-01 10:39:53.585000+00:00", "duration": 4209, "start_station_id": "289", "start_station_name": "Castle Street", "start_station_description": "Near Rose Street", "start_station_latitude": 55.951500737349754, "start_station_longitude": -3.2031839065252825, "end_station_id": "289", "end_station_name": "Castle Street", "end_station_description": "Near Rose Street", "end_station_latitude": 55.951500737349754, "end_station_longitude": -3.2031839065252825}, {"started_at": "2021-06-01 09:30:30.127000+00:00", "ended_at": "2021-06-01 10:40:23.626000+00:00", "duration": 4193, "start_station_id": "289", "start_station_name": "Castle Street", "start_station_description": "Near Rose Street", "start_station_latitude": 55.951500737349754, "start_station_longitude": -3.2031839065252825, "end_station_id": "289", "end_station_name": "Castle Street", "end_station_description": "Near Rose Street", "end_station_latitude": 55.951500737349754, "end_station_longitude": -3.2031839065252825}, {"started_at": "2021-06-01 09:34:21.527000+00:00", "ended_at": "2021-06-01 10:40:00.921000+00:00", "duration": 3939, "start_station_id": "289", "start_station_name": "Castle Street", "start_station_description": "Near Rose Street", "start_station_latitude": 55.951500737349754, "start_station_longitude": -3.2031839065252825, "end_station_id": "289", "end_station_name": "Castle Street", "end_station_description": "Near Rose Street", "end_station_latitude": 55.951500737349754, "end_station_longitude": -3.2031839065252825}, {"started_at": "2021-06-01 09:48:45.523000+00:00", "ended_at": "2021-06-01 10:27:27.547000+00:00", "duration": 2322, "start_station_id": "265", "start_station_name": "Meadows East", "start_station_description": "Between Melville Terrace and Sciennes", "start_station_latitude": 55.939809466328285, "start_station_longitude": -3.182738850746432, "end_station_id": "1024", "end_station_name": "Meadow Place", "end_station_description": "End of Meadow Place", "end_station_latitude": 55.940237631689435, "end_station_longitude": -3.194640214184801}, {"started_at": "2021-06-01 09:49:21.086000+00:00", "ended_at": "2021-06-01 10:12:24.939000+00:00", "duration": 1383, "start_station_id": "247", "start_station_name": "Charlotte Square", "start_station_description": "North Corner of Charlotte Square", "start_station_latitude": 55.95233546161639, "start_station_longitude": -3.2071011721072864, "end_station_id": "264", "end_station_name": "Pollock Halls", "end_station_description": "Pollock Halls Entrance", "end_station_latitude": 55.94008064125911, "end_station_longitude": -3.171746866852459}, {"started_at": "2021-06-01 09:49:43.573000+00:00", "ended_at": "2021-06-01 10:12:57.724000+00:00", "duration": 1394, "start_station_id": "1091", "start_station_name": "Holyrood Road", "start_station_description": "Opposite St Leonards Land", "start_station_latitude": 55.94955950619123, "start_station_longitude": -3.180413257527789, "end_station_id": "1737", "end_station_name": "Inverleith Row", "end_station_description": "Corner with Inverleith Terrace", "end_station_latitude": 55.964117879889585, "end_station_longitude": -3.2020947474163677}, {"started_at": "2021-06-01 09:50:24.724000+00:00", "ended_at": "2021-06-01 10:58:39.783000+00:00", "duration": 4095, "start_station_id": "1727", "start_station_name": "Causewayside", "start_station_description": "Outside National Library of Scotland", "start_station_latitude": 55.93650603148236, "start_station_longitude": -3.1801663476151134, "end_station_id": "1727", "end_station_name": "Causewayside", "end_station_description": "Outside National Library of Scotland", "end_station_latitude": 55.93650603148236, "end_station_longitude": -3.1801663476151134}, {"started_at": "2021-06-01 09:55:21.187000+00:00", "ended_at": "2021-06-01 10:05:32.243000+00:00", "duration": 611, "start_station_id": "189", "start_station_name": "City Chambers", "start_station_description": "City Chambers Quadrangle", "start_station_latitude": 55.95010933017899, "start_station_longitude": -3.190257770093808, "end_station_id": "262", "end_station_name": "Canonmills", "end_station_description": "near Tesco's", "end_station_latitude": 55.96280408759764, "end_station_longitude": -3.196283585062929}, {"started_at": "2021-06-01 09:55:36.719000+00:00", "ended_at": "2021-06-01 10:37:14.677000+00:00", "duration": 2497, "start_station_id": "1025", "start_station_name": "Dundee Terrace", "start_station_description": "Corner of Dundee Street & Dundee Terrace", "start_station_latitude": 55.93970989541296, "start_station_longitude": -3.2205889336679547, "end_station_id": "1728", "end_station_name": "Portobello - Kings Road", "end_station_description": "Foot of Kings Road next to the promenade", "end_station_latitude": 55.957915406923476, "end_station_longitude": -3.1183320420902874}, {"started_at": "2021-06-01 09:57:13.508000+00:00", "ended_at": "2021-06-01 10:53:32.125000+00:00", "duration": 3378, "start_station_id": "1038", "start_station_name": "South Trinity Road", "start_station_description": "Corner of South Trinity Road and Ferry Road", "start_station_latitude": 55.97132539148155, "start_station_longitude": -3.207963567424258, "end_station_id": "1722", "end_station_name": "Cramond Foreshore", "end_station_description": "Near Cramond Beach", "end_station_latitude": 55.980030767403164, "end_station_longitude": -3.300641788832536}, {"started_at": "2021-06-01 10:00:04.676000+00:00", "ended_at": "2021-06-01 10:53:59.082000+00:00", "duration": 3234, "start_station_id": "1038", "start_station_name": "South Trinity Road", "start_station_description": "Corner of South Trinity Road and Ferry Road", "start_station_latitude": 55.97132539148155, "start_station_longitude": -3.207963567424258, "end_station_id": "1722", "end_station_name": "Cramond Foreshore", "end_station_description": "Near Cramond Beach", "end_station_latitude": 55.980030767403164, "end_station_longitude": -3.300641788832536}, {"started_at": "2021-06-01 10:10:13.945000+00:00", "ended_at": "2021-06-01 10:48:06.729000+00:00", "duration": 2272, "start_station_id": "264", "start_station_name": "Pollock Halls", "start_station_description": "Pollock Halls Entrance", "start_station_latitude": 55.94008064125911, "start_station_longitude": -3.171746866852459, "end_station_id": "1728", "end_station_name": "Portobello - Kings Road", "end_station_description": "Foot of Kings Road next to the promenade", "end_station_latitude": 55.957915406923476, "end_station_longitude": -3.1183320420902874}, {"started_at": "2021-06-01 10:10:45.458000+00:00", "ended_at": "2021-06-01 10:31:57.576000+00:00", "duration": 1272, "start_station_id": "1721", "start_station_name": "Tollcross", "start_station_description": "Outside Piccolinos off Lauriston Place", "start_station_latitude": 55.944248052468346, "start_station_longitude": -3.2031045991104747, "end_station_id": "250", "end_station_name": "Victoria Quay", "end_station_description": "Entrance to Scottish Government Office", "end_station_latitude": 55.977617152546344, "end_station_longitude": -3.1741263194576277}, {"started_at": "2021-06-01 10:13:47.727000+00:00", "ended_at": "2021-06-01 12:03:58.703000+00:00", "duration": 6610, "start_station_id": "1720", "start_station_name": "Dundas Street", "start_station_description": "On corner of Henderson Row", "start_station_latitude": 55.9607624081837, "start_station_longitude": -3.201278014771333, "end_station_id": "247", "end_station_name": "Charlotte Square", "end_station_description": "North Corner of Charlotte Square", "end_station_latitude": 55.95233546161639, "end_station_longitude": -3.2071011721072864}, {"started_at": "2021-06-01 10:16:52.211000+00:00", "ended_at": "2021-06-01 11:16:12.877000+00:00", "duration": 3560, "start_station_id": "1050", "start_station_name": "EICC", "start_station_description": "Outside Edinburgh International Conference Centre", "start_station_latitude": 55.94607055533778, "start_station_longitude": -3.2103963310007657, "end_station_id": "250", "end_station_name": "Victoria Quay", "end_station_description": "Entrance to Scottish Government Office", "end_station_latitude": 55.977617152546344, "end_station_longitude": -3.1741263194576277}, {"started_at": "2021-06-01 10:18:01.108000+00:00", "ended_at": "2021-06-01 12:04:06.658000+00:00", "duration": 6365, "start_station_id": "1720", "start_station_name": "Dundas Street", "start_station_description": "On corner of Henderson Row", "start_station_latitude": 55.9607624081837, "start_station_longitude": -3.201278014771333, "end_station_id": "247", "end_station_name": "Charlotte Square", "end_station_description": "North Corner of Charlotte Square", "end_station_latitude": 55.95233546161639, "end_station_longitude": -3.2071011721072864}, {"started_at": "2021-06-01 10:18:15.528000+00:00", "ended_at": "2021-06-01 10:28:40.437000+00:00", "duration": 624, "start_station_id": "262", "start_station_name": "Canonmills", "start_station_description": "near Tesco's", "start_station_latitude": 55.96280408759764, "start_station_longitude": -3.196283585062929, "end_station_id": "1038", "end_station_name": "South Trinity Road", "end_station_description": "Corner of South Trinity Road and Ferry Road", "end_station_latitude": 55.97132539148155, "end_station_longitude": -3.207963567424258}, {"started_at": "2021-06-01 10:23:59.542000+00:00", "ended_at": "2021-06-01 15:40:33.452000+00:00", "duration": 18993, "start_station_id": "250", "start_station_name": "Victoria Quay", "start_station_description": "Entrance to Scottish Government Office", "start_station_latitude": 55.977617152546344, "start_station_longitude": -3.1741263194576277, "end_station_id": "250", "end_station_name": "Victoria Quay", "end_station_description": "Entrance to Scottish Government Office", "end_station_latitude": 55.977617152546344, "end_station_longitude": -3.1741263194576277}, {"started_at": "2021-06-01 10:25:42.779000+00:00", "ended_at": "2021-06-01 15:41:26.600000+00:00", "duration": 18943, "start_station_id": "250", "start_station_name": "Victoria Quay", "start_station_description": "Entrance to Scottish Government Office", "start_station_latitude": 55.977617152546344, "start_station_longitude": -3.1741263194576277, "end_station_id": "250", "end_station_name": "Victoria Quay", "end_station_description": "Entrance to Scottish Government Office", "end_station_latitude": 55.977617152546344, "end_station_longitude": -3.1741263194576277}, {"started_at": "2021-06-01 10:27:52.055000+00:00", "ended_at": "2021-06-01 15:40:36.510000+00:00", "duration": 18764, "start_station_id": "250", "start_station_name": "Victoria Quay", "start_station_description": "Entrance to Scottish Government Office", "start_station_latitude": 55.977617152546344, "start_station_longitude": -3.1741263194576277, "end_station_id": "250", "end_station_name": "Victoria Quay", "end_station_description": "Entrance to Scottish Government Office", "end_station_latitude": 55.977617152546344, "end_station_longitude": -3.1741263194576277}, {"started_at": "2021-06-01 10:31:11.411000+00:00", "ended_at": "2021-06-01 10:44:26.810000+00:00", "duration": 795, "start_station_id": "1727", "start_station_name": "Causewayside", "start_station_description": "Outside National Library of Scotland", "start_station_latitude": 55.93650603148236, "start_station_longitude": -3.1801663476151134, "end_station_id": "1091", "end_station_name": "Holyrood Road", "end_station_description": "Opposite St Leonards Land", "end_station_latitude": 55.94955950619123, "end_station_longitude": -3.180413257527789}, {"started_at": "2021-06-01 10:34:26.248000+00:00", "ended_at": "2021-06-01 10:53:55.901000+00:00", "duration": 1169, "start_station_id": "247", "start_station_name": "Charlotte Square", "start_station_description": "North Corner of Charlotte Square", "start_station_latitude": 55.95233546161639, "start_station_longitude": -3.2071011721072864, "end_station_id": "1737", "end_station_name": "Inverleith Row", "end_station_description": "Corner with Inverleith Terrace", "end_station_latitude": 55.964117879889585, "end_station_longitude": -3.2020947474163677}, {"started_at": "2021-06-01 10:34:29.621000+00:00", "ended_at": "2021-06-01 10:53:25.034000+00:00", "duration": 1135, "start_station_id": "247", "start_station_name": "Charlotte Square", "start_station_description": "North Corner of Charlotte Square", "start_station_latitude": 55.95233546161639, "start_station_longitude": -3.2071011721072864, "end_station_id": "1737", "end_station_name": "Inverleith Row", "end_station_description": "Corner with Inverleith Terrace", "end_station_latitude": 55.964117879889585, "end_station_longitude": -3.2020947474163677}, {"started_at": "2021-06-01 10:35:06.810000+00:00", "ended_at": "2021-06-01 10:53:29.197000+00:00", "duration": 1102, "start_station_id": "247", "start_station_name": "Charlotte Square", "start_station_description": "North Corner of Charlotte Square", "start_station_latitude": 55.95233546161639, "start_station_longitude": -3.2071011721072864, "end_station_id": "1737", "end_station_name": "Inverleith Row", "end_station_description": "Corner with Inverleith Terrace", "end_station_latitude": 55.964117879889585, "end_station_longitude": -3.2020947474163677}, {"started_at": "2021-06-01 10:35:52.273000+00:00", "ended_at": "2021-06-01 11:30:55.923000+00:00", "duration": 3303, "start_station_id": "1019", "start_station_name": "Grassmarket", "start_station_description": "West end of Grassmarket", "start_station_latitude": 55.947097278583385, "start_station_longitude": -3.1972457326126005, "end_station_id": "1050", "end_station_name": "EICC", "end_station_description": "Outside Edinburgh International Conference Centre", "end_station_latitude": 55.94607055533778, "end_station_longitude": -3.2103963310007657}, {"started_at": "2021-06-01 10:36:00.474000+00:00", "ended_at": "2021-06-01 11:24:15.881000+00:00", "duration": 2895, "start_station_id": "1725", "start_station_name": "Edinburgh Zoo", "start_station_description": "Corstorphine Road, Edinburgh", "start_station_latitude": 55.94211534619251, "start_station_longitude": -3.2692867654484417, "end_station_id": "1729", "end_station_name": "McDonald Road", "end_station_description": "Next to Fire Station", "end_station_latitude": 55.9640310527501, "end_station_longitude": -3.1851753729504253}, {"started_at": "2021-06-01 10:36:57.213000+00:00", "ended_at": "2021-06-01 10:44:24.242000+00:00", "duration": 447, "start_station_id": "1745", "start_station_name": "Scotland Street", "start_station_description": "Corner with Royal Crescent", "start_station_latitude": 55.96037972054591, "start_station_longitude": -3.1954703369027584, "end_station_id": "1763", "end_station_name": "Comely Bank Road", "end_station_description": "Outside Raeburn Place Sports Ground", "end_station_latitude": 55.95941012836135, "end_station_longitude": -3.2156613606136943}, {"started_at": "2021-06-01 10:37:58.608000+00:00", "ended_at": "2021-06-01 11:04:44.431000+00:00", "duration": 1605, "start_station_id": "1039", "start_station_name": "Lothian Road", "start_station_description": "Outside the Usher Hall", "start_station_latitude": 55.947409199207115, "start_station_longitude": -3.2057654971365537, "end_station_id": "1728", "end_station_name": "Portobello - Kings Road", "end_station_description": "Foot of Kings Road next to the promenade", "end_station_latitude": 55.957915406923476, "end_station_longitude": -3.1183320420902874}, {"started_at": "2021-06-01 10:41:25.328000+00:00", "ended_at": "2021-06-01 10:52:02.517000+00:00", "duration": 637, "start_station_id": "259", "start_station_name": "St Andrew Square", "start_station_description": "North East corner", "start_station_latitude": 55.95490573198223, "start_station_longitude": -3.192443756949956, "end_station_id": "171", "end_station_name": "George Square", "end_station_description": "George Square, south side in front of University library", "end_station_latitude": 55.94308406301113, "end_station_longitude": -3.1883110727223993}, {"started_at": "2021-06-01 10:42:12.659000+00:00", "ended_at": "2021-06-01 11:00:32.688000+00:00", "duration": 1100, "start_station_id": "1744", "start_station_name": "Morningside Road", "start_station_description": "Corner of Morningside Park, beside M&S", "start_station_latitude": 55.927985349796536, "start_station_longitude": -3.209749771944871, "end_station_id": "1042", "end_station_name": "Kings Buildings - Murchison House", "end_station_description": "West end of campus", "end_station_latitude": 55.92446420087144, "end_station_longitude": -3.1787315124754514}, {"started_at": "2021-06-01 10:44:57.386000+00:00", "ended_at": "2021-06-01 11:01:43.203000+00:00", "duration": 1005, "start_station_id": "1729", "start_station_name": "McDonald Road", "start_station_description": "Next to Fire Station", "start_station_latitude": 55.9640310527501, "start_station_longitude": -3.1851753729504253, "end_station_id": "1824", "end_station_name": "Duke Street", "end_station_description": "Junction with Easter Road", "end_station_latitude": 55.96901164826488, "end_station_longitude": -3.16739470303429}, {"started_at": "2021-06-01 10:45:34.583000+00:00", "ended_at": "2021-06-01 10:56:07.424000+00:00", "duration": 632, "start_station_id": "1809", "start_station_name": "Royal Edinburgh Hospital", "start_station_description": "Next to Kennedy Tower", "start_station_latitude": 55.92781815597736, "start_station_longitude": -3.2133077222032247, "end_station_id": "296", "end_station_name": "Castle Terrace", "end_station_description": "Corner of Castle Terrace and Lady Lawson St", "end_station_latitude": 55.94676648672239, "end_station_longitude": -3.2020378290551434}, {"started_at": "2021-06-01 10:45:58.612000+00:00", "ended_at": "2021-06-01 10:57:47.537000+00:00", "duration": 708, "start_station_id": "289", "start_station_name": "Castle Street", "start_station_description": "Near Rose Street", "start_station_latitude": 55.951500737349754, "start_station_longitude": -3.2031839065252825, "end_station_id": "349", "end_station_name": "Orchard Brae House", "end_station_description": "Outside Orchard Brae House on Queensferry Road", "end_station_latitude": 55.95508276879095, "end_station_longitude": -3.2236342639564555}, {"started_at": "2021-06-01 10:46:30.983000+00:00", "ended_at": "2021-06-01 11:24:45.123000+00:00", "duration": 2294, "start_station_id": "1096", "start_station_name": "West Crosscauseway", "start_station_description": "On island next to Buccleuch Street", "start_station_latitude": 55.9438359841253, "start_station_longitude": -3.1849514084976818, "end_station_id": "264", "end_station_name": "Pollock Halls", "end_station_description": "Pollock Halls Entrance", "end_station_latitude": 55.94008064125911, "end_station_longitude": -3.171746866852459}, {"started_at": "2021-06-01 10:47:29.550000+00:00", "ended_at": "2021-06-01 11:51:17.594000+00:00", "duration": 3828, "start_station_id": "247", "start_station_name": "Charlotte Square", "start_station_description": "North Corner of Charlotte Square", "start_station_latitude": 55.95233546161639, "start_station_longitude": -3.2071011721072864, "end_station_id": "259", "end_station_name": "St Andrew Square", "end_station_description": "North East corner", "end_station_latitude": 55.95490573198223, "end_station_longitude": -3.192443756949956}, {"started_at": "2021-06-01 10:51:05.453000+00:00", "ended_at": "2021-06-01 11:07:35.754000+00:00", "duration": 990, "start_station_id": "1039", "start_station_name": "Lothian Road", "start_station_description": "Outside the Usher Hall", "start_station_latitude": 55.947409199207115, "start_station_longitude": -3.2057654971365537, "end_station_id": "262", "end_station_name": "Canonmills", "end_station_description": "near Tesco's", "end_station_latitude": 55.96280408759764, "end_station_longitude": -3.196283585062929}, {"started_at": "2021-06-01 10:51:12.279000+00:00", "ended_at": "2021-06-01 11:07:09.377000+00:00", "duration": 957, "start_station_id": "1039", "start_station_name": "Lothian Road", "start_station_description": "Outside the Usher Hall", "start_station_latitude": 55.947409199207115, "start_station_longitude": -3.2057654971365537, "end_station_id": "262", "end_station_name": "Canonmills", "end_station_description": "near Tesco's", "end_station_latitude": 55.96280408759764, "end_station_longitude": -3.196283585062929}, {"started_at": "2021-06-01 10:52:24.424000+00:00", "ended_at": "2021-06-01 11:07:08.336000+00:00", "duration": 883, "start_station_id": "1039", "start_station_name": "Lothian Road", "start_station_description": "Outside the Usher Hall", "start_station_latitude": 55.947409199207115, "start_station_longitude": -3.2057654971365537, "end_station_id": "262", "end_station_name": "Canonmills", "end_station_description": "near Tesco's", "end_station_latitude": 55.96280408759764, "end_station_longitude": -3.196283585062929}, {"started_at": "2021-06-01 10:57:36.776000+00:00", "ended_at": "2021-06-01 11:29:46.698000+00:00", "duration": 1929, "start_station_id": "1727", "start_station_name": "Causewayside", "start_station_description": "Outside National Library of Scotland", "start_station_latitude": 55.93650603148236, "start_station_longitude": -3.1801663476151134, "end_station_id": "1728", "end_station_name": "Portobello - Kings Road", "end_station_description": "Foot of Kings Road next to the promenade", "end_station_latitude": 55.957915406923476, "end_station_longitude": -3.1183320420902874}, {"started_at": "2021-06-01 10:59:07.160000+00:00", "ended_at": "2021-06-01 11:11:54.923000+00:00", "duration": 767, "start_station_id": "171", "start_station_name": "George Square", "start_station_description": "George Square, south side in front of University library", "start_station_latitude": 55.94308406301113, "start_station_longitude": -3.1883110727223993, "end_station_id": "171", "end_station_name": "George Square", "end_station_description": "George Square, south side in front of University library", "end_station_latitude": 55.94308406301113, "end_station_longitude": -3.1883110727223993}, {"started_at": "2021-06-01 11:00:44.990000+00:00", "ended_at": "2021-06-01 11:23:56.090000+00:00", "duration": 1391, "start_station_id": "1091", "start_station_name": "Holyrood Road", "start_station_description": "Opposite St Leonards Land", "start_station_latitude": 55.94955950619123, "start_station_longitude": -3.180413257527789, "end_station_id": "264", "end_station_name": "Pollock Halls", "end_station_description": "Pollock Halls Entrance", "end_station_latitude": 55.94008064125911, "end_station_longitude": -3.171746866852459}, {"started_at": "2021-06-01 11:02:35.916000+00:00", "ended_at": "2021-06-01 11:30:31.667000+00:00", "duration": 1675, "start_station_id": "2268", "start_station_name": "Picardy Place", "start_station_description": "Outside Omni Centre", "start_station_latitude": 55.95653524179326, "start_station_longitude": -3.1862476120746805, "end_station_id": "250", "end_station_name": "Victoria Quay", "end_station_description": "Entrance to Scottish Government Office", "end_station_latitude": 55.977617152546344, "end_station_longitude": -3.1741263194576277}, {"started_at": "2021-06-01 11:02:38.031000+00:00", "ended_at": "2021-06-01 11:30:55.028000+00:00", "duration": 1696, "start_station_id": "2268", "start_station_name": "Picardy Place", "start_station_description": "Outside Omni Centre", "start_station_latitude": 55.95653524179326, "start_station_longitude": -3.1862476120746805, "end_station_id": "2268", "end_station_name": "Picardy Place", "end_station_description": "Outside Omni Centre", "end_station_latitude": 55.95653524179326, "end_station_longitude": -3.1862476120746805}, {"started_at": "2021-06-01 11:06:46.577000+00:00", "ended_at": "2021-06-01 11:27:50.312000+00:00", "duration": 1263, "start_station_id": "1039", "start_station_name": "Lothian Road", "start_station_description": "Outside the Usher Hall", "start_station_latitude": 55.947409199207115, "start_station_longitude": -3.2057654971365537, "end_station_id": "225", "end_station_name": "Waverley Court", "end_station_description": "On Waverley Court forecourt", "end_station_latitude": 55.95173449698344, "end_station_longitude": -3.1841785354060903}, {"started_at": "2021-06-01 11:13:13.353000+00:00", "ended_at": "2021-06-01 12:15:31.273000+00:00", "duration": 3737, "start_station_id": "264", "start_station_name": "Pollock Halls", "start_station_description": "Pollock Halls Entrance", "start_station_latitude": 55.94008064125911, "start_station_longitude": -3.171746866852459, "end_station_id": "1728", "end_station_name": "Portobello - Kings Road", "end_station_description": "Foot of Kings Road next to the promenade", "end_station_latitude": 55.957915406923476, "end_station_longitude": -3.1183320420902874}, {"started_at": "2021-06-01 11:19:13.810000+00:00", "ended_at": "2021-06-01 12:17:11.983000+00:00", "duration": 3478, "start_station_id": "1823", "start_station_name": "Boroughmuir", "start_station_description": "Off Gibson Terrace", "start_station_latitude": 55.94007146917616, "start_station_longitude": -3.215335840688084, "end_station_id": "249", "end_station_name": "Fountainbridge", "end_station_description": "Fountainbridge by Gardner's Crescent", "end_station_latitude": 55.94335692764551, "end_station_longitude": -3.2092475016246453}, {"started_at": "2021-06-01 11:19:17.098000+00:00", "ended_at": "2021-06-01 12:20:34.795000+00:00", "duration": 3677, "start_station_id": "1038", "start_station_name": "South Trinity Road", "start_station_description": "Corner of South Trinity Road and Ferry Road", "start_station_latitude": 55.97132539148155, "start_station_longitude": -3.207963567424258, "end_station_id": "1038", "end_station_name": "South Trinity Road", "end_station_description": "Corner of South Trinity Road and Ferry Road", "end_station_latitude": 55.97132539148155, "end_station_longitude": -3.207963567424258}, {"started_at": "2021-06-01 11:19:56.755000+00:00", "ended_at": "2021-06-01 12:17:47.998000+00:00", "duration": 3471, "start_station_id": "1823", "start_station_name": "Boroughmuir", "start_station_description": "Off Gibson Terrace", "start_station_latitude": 55.94007146917616, "start_station_longitude": -3.215335840688084, "end_station_id": "249", "end_station_name": "Fountainbridge", "end_station_description": "Fountainbridge by Gardner's Crescent", "end_station_latitude": 55.94335692764551, "end_station_longitude": -3.2092475016246453}, {"started_at": "2021-06-01 11:20:10.835000+00:00", "ended_at": "2021-06-01 12:50:43.854000+00:00", "duration": 5433, "start_station_id": "1748", "start_station_name": "Colinton Road", "start_station_description": "Near Napier University Merchiston Campus", "start_station_latitude": 55.933416359161036, "start_station_longitude": -3.21239711224257, "end_station_id": "1728", "end_station_name": "Portobello - Kings Road", "end_station_description": "Foot of Kings Road next to the promenade", "end_station_latitude": 55.957915406923476, "end_station_longitude": -3.1183320420902874}, {"started_at": "2021-06-01 11:21:07.372000+00:00", "ended_at": "2021-06-01 11:46:59.788000+00:00", "duration": 1552, "start_station_id": "1813", "start_station_name": "Milton Road - Edinburgh College", "start_station_description": "Milton Road Campus", "start_station_latitude": 55.94406627599551, "start_station_longitude": -3.0985614794416128, "end_station_id": "1824", "end_station_name": "Duke Street", "end_station_description": "Junction with Easter Road", "end_station_latitude": 55.96901164826488, "end_station_longitude": -3.16739470303429}, {"started_at": "2021-06-01 11:21:13.010000+00:00", "ended_at": "2021-06-01 12:17:59.457000+00:00", "duration": 3406, "start_station_id": "1823", "start_station_name": "Boroughmuir", "start_station_description": "Off Gibson Terrace", "start_station_latitude": 55.94007146917616, "start_station_longitude": -3.215335840688084, "end_station_id": "249", "end_station_name": "Fountainbridge", "end_station_description": "Fountainbridge by Gardner's Crescent", "end_station_latitude": 55.94335692764551, "end_station_longitude": -3.2092475016246453}, {"started_at": "2021-06-01 11:22:08.240000+00:00", "ended_at": "2021-06-01 12:48:45.777000+00:00", "duration": 5197, "start_station_id": "1748", "start_station_name": "Colinton Road", "start_station_description": "Near Napier University Merchiston Campus", "start_station_latitude": 55.933416359161036, "start_station_longitude": -3.21239711224257, "end_station_id": "1728", "end_station_name": "Portobello - Kings Road", "end_station_description": "Foot of Kings Road next to the promenade", "end_station_latitude": 55.957915406923476, "end_station_longitude": -3.1183320420902874}, {"started_at": "2021-06-01 11:23:02.260000+00:00", "ended_at": "2021-06-01 12:07:57.398000+00:00", "duration": 2695, "start_station_id": "1092", "start_station_name": "Dalry Road Lidl", "start_station_description": "", "start_station_latitude": 55.94179129688128, "start_station_longitude": -3.2224153095964994, "end_station_id": "1092", "end_station_name": "Dalry Road Lidl", "end_station_description": "", "end_station_latitude": 55.94179129688128, "end_station_longitude": -3.2224153095964994}, {"started_at": "2021-06-01 11:23:03.788000+00:00", "ended_at": "2021-06-01 11:32:01.981000+00:00", "duration": 538, "start_station_id": "1017", "start_station_name": "Crichton Street", "start_station_description": "East end of street", "start_station_latitude": 55.94478427951007, "start_station_longitude": -3.186906245433761, "end_station_id": "1767", "end_station_name": "Bruntsfield Links", "end_station_description": "Corner of Bruntsfield Links next to Public Toilets", "end_station_latitude": 55.937123239991095, "end_station_longitude": -3.206431879393449}, {"started_at": "2021-06-01 11:23:43.127000+00:00", "ended_at": "2021-06-01 11:51:22.243000+00:00", "duration": 1659, "start_station_id": "1737", "start_station_name": "Inverleith Row", "start_station_description": "Corner with Inverleith Terrace", "start_station_latitude": 55.964117879889585, "start_station_longitude": -3.2020947474163677, "end_station_id": "1818", "end_station_name": "Dynamic Earth", "end_station_description": "Outside Dynamic Earth, Holyrood Road", "end_station_latitude": 55.951089465236365, "end_station_longitude": -3.17572460948655}, {"started_at": "2021-06-01 11:24:42.827000+00:00", "ended_at": "2021-06-01 11:57:51.475000+00:00", "duration": 1988, "start_station_id": "183", "start_station_name": "Waverley Bridge", "start_station_description": "near the top of the South ramp", "start_station_latitude": 55.951980756193535, "start_station_longitude": -3.1918903325579038, "end_station_id": "1757", "end_station_name": "Meggetland", "end_station_description": "Meggetland Sports Complex", "end_station_latitude": 55.92758664038103, "end_station_longitude": -3.2336710530441906}, {"started_at": "2021-06-01 11:25:16.455000+00:00", "ended_at": "2021-06-01 12:08:39.272000+00:00", "duration": 2602, "start_station_id": "1727", "start_station_name": "Causewayside", "start_station_description": "Outside National Library of Scotland", "start_station_latitude": 55.93650603148236, "start_station_longitude": -3.1801663476151134, "end_station_id": "1728", "end_station_name": "Portobello - Kings Road", "end_station_description": "Foot of Kings Road next to the promenade", "end_station_latitude": 55.957915406923476, "end_station_longitude": -3.1183320420902874}, {"started_at": "2021-06-01 11:25:33.631000+00:00", "ended_at": "2021-06-01 11:49:24.064000+00:00", "duration": 1430, "start_station_id": "183", "start_station_name": "Waverley Bridge", "start_station_description": "near the top of the South ramp", "start_station_latitude": 55.951980756193535, "start_station_longitude": -3.1918903325579038, "end_station_id": "1757", "end_station_name": "Meggetland", "end_station_description": "Meggetland Sports Complex", "end_station_latitude": 55.92758664038103, "end_station_longitude": -3.2336710530441906}, {"started_at": "2021-06-01 11:25:49.041000+00:00", "ended_at": "2021-06-01 12:08:09.499000+00:00", "duration": 2540, "start_station_id": "1727", "start_station_name": "Causewayside", "start_station_description": "Outside National Library of Scotland", "start_station_latitude": 55.93650603148236, "start_station_longitude": -3.1801663476151134, "end_station_id": "1728", "end_station_name": "Portobello - Kings Road", "end_station_description": "Foot of Kings Road next to the promenade", "end_station_latitude": 55.957915406923476, "end_station_longitude": -3.1183320420902874}, {"started_at": "2021-06-01 11:28:04.149000+00:00", "ended_at": "2021-06-01 12:01:09.264000+00:00", "duration": 1985, "start_station_id": "1722", "start_station_name": "Cramond Foreshore", "start_station_description": "Near Cramond Beach", "start_station_latitude": 55.980030767403164, "start_station_longitude": -3.300641788832536, "end_station_id": "1722", "end_station_name": "Cramond Foreshore", "end_station_description": "Near Cramond Beach", "end_station_latitude": 55.980030767403164, "end_station_longitude": -3.300641788832536}, {"started_at": "2021-06-01 11:28:06.437000+00:00", "ended_at": "2021-06-01 12:01:06.609000+00:00", "duration": 1980, "start_station_id": "1722", "start_station_name": "Cramond Foreshore", "start_station_description": "Near Cramond Beach", "start_station_latitude": 55.980030767403164, "start_station_longitude": -3.300641788832536, "end_station_id": "1722", "end_station_name": "Cramond Foreshore", "end_station_description": "Near Cramond Beach", "end_station_latitude": 55.980030767403164, "end_station_longitude": -3.300641788832536}, {"started_at": "2021-06-01 11:30:35.992000+00:00", "ended_at": "2021-06-01 11:37:18.639000+00:00", "duration": 402, "start_station_id": "1824", "start_station_name": "Duke Street", "start_station_description": "Junction with Easter Road", "start_station_latitude": 55.96901164826488, "start_station_longitude": -3.16739470303429, "end_station_id": "1824", "end_station_name": "Duke Street", "end_station_description": "Junction with Easter Road", "end_station_latitude": 55.96901164826488, "end_station_longitude": -3.16739470303429}, {"started_at": "2021-06-01 11:30:48.459000+00:00", "ended_at": "2021-06-01 11:39:50.387000+00:00", "duration": 541, "start_station_id": "1729", "start_station_name": "McDonald Road", "start_station_description": "Next to Fire Station", "start_station_latitude": 55.9640310527501, "start_station_longitude": -3.1851753729504253, "end_station_id": "1737", "end_station_name": "Inverleith Row", "end_station_description": "Corner with Inverleith Terrace", "end_station_latitude": 55.964117879889585, "end_station_longitude": -3.2020947474163677}, {"started_at": "2021-06-01 11:34:40.191000+00:00", "ended_at": "2021-06-01 12:00:06.653000+00:00", "duration": 1526, "start_station_id": "264", "start_station_name": "Pollock Halls", "start_station_description": "Pollock Halls Entrance", "start_station_latitude": 55.94008064125911, "start_station_longitude": -3.171746866852459, "end_station_id": "248", "end_station_name": "Bristo Square", "end_station_description": "Bristo Square, near Potterrow", "end_station_latitude": 55.94583371599285, "end_station_longitude": -3.189053072075467}, {"started_at": "2021-06-01 11:34:41.972000+00:00", "ended_at": "2021-06-01 11:59:09.522000+00:00", "duration": 1467, "start_station_id": "264", "start_station_name": "Pollock Halls", "start_station_description": "Pollock Halls Entrance", "start_station_latitude": 55.94008064125911, "start_station_longitude": -3.171746866852459, "end_station_id": "248", "end_station_name": "Bristo Square", "end_station_description": "Bristo Square, near Potterrow", "end_station_latitude": 55.94583371599285, "end_station_longitude": -3.189053072075467}, {"started_at": "2021-06-01 11:36:47.642000+00:00", "ended_at": "2021-06-01 12:06:23.544000+00:00", "duration": 1775, "start_station_id": "250", "start_station_name": "Victoria Quay", "start_station_description": "Entrance to Scottish Government Office", "start_station_latitude": 55.977617152546344, "start_station_longitude": -3.1741263194576277, "end_station_id": "1722", "end_station_name": "Cramond Foreshore", "end_station_description": "Near Cramond Beach", "end_station_latitude": 55.980030767403164, "end_station_longitude": -3.300641788832536}, {"started_at": "2021-06-01 11:38:30.329000+00:00", "ended_at": "2021-06-01 12:18:46.232000+00:00", "duration": 2415, "start_station_id": "264", "start_station_name": "Pollock Halls", "start_station_description": "Pollock Halls Entrance", "start_station_latitude": 55.94008064125911, "start_station_longitude": -3.171746866852459, "end_station_id": "1091", "end_station_name": "Holyrood Road", "end_station_description": "Opposite St Leonards Land", "end_station_latitude": 55.94955950619123, "end_station_longitude": -3.180413257527789}, {"started_at": "2021-06-01 11:40:59.375000+00:00", "ended_at": "2021-06-01 11:59:06.281000+00:00", "duration": 1086, "start_station_id": "1824", "start_station_name": "Duke Street", "start_station_description": "Junction with Easter Road", "start_station_latitude": 55.96901164826488, "start_station_longitude": -3.16739470303429, "end_station_id": "1728", "end_station_name": "Portobello - Kings Road", "end_station_description": "Foot of Kings Road next to the promenade", "end_station_latitude": 55.957915406923476, "end_station_longitude": -3.1183320420902874}, {"started_at": "2021-06-01 11:42:12.184000+00:00", "ended_at": "2021-06-01 17:02:07.542000+00:00", "duration": 19195, "start_station_id": "289", "start_station_name": "Castle Street", "start_station_description": "Near Rose Street", "start_station_latitude": 55.951500737349754, "start_station_longitude": -3.2031839065252825, "end_station_id": "1738", "end_station_name": "Wester Coates Terrace", "end_station_description": "Junction with Roseburn Terrace", "end_station_latitude": 55.94564841884953, "end_station_longitude": -3.2318471509140636}, {"started_at": "2021-06-01 11:43:51.800000+00:00", "ended_at": "2021-06-01 12:01:13.559000+00:00", "duration": 1041, "start_station_id": "264", "start_station_name": "Pollock Halls", "start_station_description": "Pollock Halls Entrance", "start_station_latitude": 55.94008064125911, "start_station_longitude": -3.171746866852459, "end_station_id": "1728", "end_station_name": "Portobello - Kings Road", "end_station_description": "Foot of Kings Road next to the promenade", "end_station_latitude": 55.957915406923476, "end_station_longitude": -3.1183320420902874}, {"started_at": "2021-06-01 11:52:23.215000+00:00", "ended_at": "2021-06-01 12:52:09.147000+00:00", "duration": 3585, "start_station_id": "259", "start_station_name": "St Andrew Square", "start_station_description": "North East corner", "start_station_latitude": 55.95490573198223, "start_station_longitude": -3.192443756949956, "end_station_id": "247", "end_station_name": "Charlotte Square", "end_station_description": "North Corner of Charlotte Square", "end_station_latitude": 55.95233546161639, "end_station_longitude": -3.2071011721072864}, {"started_at": "2021-06-01 11:54:15.374000+00:00", "ended_at": "2021-06-01 12:23:46.896000+00:00", "duration": 1771, "start_station_id": "264", "start_station_name": "Pollock Halls", "start_station_description": "Pollock Halls Entrance", "start_station_latitude": 55.94008064125911, "start_station_longitude": -3.171746866852459, "end_station_id": "247", "end_station_name": "Charlotte Square", "end_station_description": "North Corner of Charlotte Square", "end_station_latitude": 55.95233546161639, "end_station_longitude": -3.2071011721072864}, {"started_at": "2021-06-01 11:55:02.163000+00:00", "ended_at": "2021-06-01 12:58:07.344000+00:00", "duration": 3785, "start_station_id": "1019", "start_station_name": "Grassmarket", "start_station_description": "West end of Grassmarket", "start_station_latitude": 55.947097278583385, "start_station_longitude": -3.1972457326126005, "end_station_id": "1728", "end_station_name": "Portobello - Kings Road", "end_station_description": "Foot of Kings Road next to the promenade", "end_station_latitude": 55.957915406923476, "end_station_longitude": -3.1183320420902874}, {"started_at": "2021-06-01 11:57:13.077000+00:00", "ended_at": "2021-06-01 12:26:14.938000+00:00", "duration": 1741, "start_station_id": "264", "start_station_name": "Pollock Halls", "start_station_description": "Pollock Halls Entrance", "start_station_latitude": 55.94008064125911, "start_station_longitude": -3.171746866852459, "end_station_id": "1728", "end_station_name": "Portobello - Kings Road", "end_station_description": "Foot of Kings Road next to the promenade", "end_station_latitude": 55.957915406923476, "end_station_longitude": -3.1183320420902874}, {"started_at": "2021-06-01 11:57:14.699000+00:00", "ended_at": "2021-06-01 12:27:43.025000+00:00", "duration": 1828, "start_station_id": "264", "start_station_name": "Pollock Halls", "start_station_description": "Pollock Halls Entrance", "start_station_latitude": 55.94008064125911, "start_station_longitude": -3.171746866852459, "end_station_id": "1728", "end_station_name": "Portobello - Kings Road", "end_station_description": "Foot of Kings Road next to the promenade", "end_station_latitude": 55.957915406923476, "end_station_longitude": -3.1183320420902874}, {"started_at": "2021-06-01 11:57:15.815000+00:00", "ended_at": "2021-06-01 12:30:25.737000+00:00", "duration": 1989, "start_station_id": "264", "start_station_name": "Pollock Halls", "start_station_description": "Pollock Halls Entrance", "start_station_latitude": 55.94008064125911, "start_station_longitude": -3.171746866852459, "end_station_id": "1728", "end_station_name": "Portobello - Kings Road", "end_station_description": "Foot of Kings Road next to the promenade", "end_station_latitude": 55.957915406923476, "end_station_longitude": -3.1183320420902874}, {"started_at": "2021-06-01 11:57:16.729000+00:00", "ended_at": "2021-06-01 12:29:04.725000+00:00", "duration": 1907, "start_station_id": "264", "start_station_name": "Pollock Halls", "start_station_description": "Pollock Halls Entrance", "start_station_latitude": 55.94008064125911, "start_station_longitude": -3.171746866852459, "end_station_id": "1728", "end_station_name": "Portobello - Kings Road", "end_station_description": "Foot of Kings Road next to the promenade", "end_station_latitude": 55.957915406923476, "end_station_longitude": -3.1183320420902874}, {"started_at": "2021-06-01 11:57:23.369000+00:00", "ended_at": "2021-06-01 12:30:58.267000+00:00", "duration": 2014, "start_station_id": "264", "start_station_name": "Pollock Halls", "start_station_description": "Pollock Halls Entrance", "start_station_latitude": 55.94008064125911, "start_station_longitude": -3.171746866852459, "end_station_id": "1728", "end_station_name": "Portobello - Kings Road", "end_station_description": "Foot of Kings Road next to the promenade", "end_station_latitude": 55.957915406923476, "end_station_longitude": -3.1183320420902874}, {"started_at": "2021-06-01 11:57:53.279000+00:00", "ended_at": "2021-06-01 12:31:44.913000+00:00", "duration": 2031, "start_station_id": "264", "start_station_name": "Pollock Halls", "start_station_description": "Pollock Halls Entrance", "start_station_latitude": 55.94008064125911, "start_station_longitude": -3.171746866852459, "end_station_id": "1728", "end_station_name": "Portobello - Kings Road", "end_station_description": "Foot of Kings Road next to the promenade", "end_station_latitude": 55.957915406923476, "end_station_longitude": -3.1183320420902874}, {"started_at": "2021-06-01 11:58:27.187000+00:00", "ended_at": "2021-06-01 12:29:54.401000+00:00", "duration": 1887, "start_station_id": "264", "start_station_name": "Pollock Halls", "start_station_description": "Pollock Halls Entrance", "start_station_latitude": 55.94008064125911, "start_station_longitude": -3.171746866852459, "end_station_id": "1728", "end_station_name": "Portobello - Kings Road", "end_station_description": "Foot of Kings Road next to the promenade", "end_station_latitude": 55.957915406923476, "end_station_longitude": -3.1183320420902874}, {"started_at": "2021-06-01 12:02:30.237000+00:00", "ended_at": "2021-06-01 12:15:26.117000+00:00", "duration": 775, "start_station_id": "248", "start_station_name": "Bristo Square", "start_station_description": "Bristo Square, near Potterrow", "start_station_latitude": 55.94583371599285, "start_station_longitude": -3.189053072075467, "end_station_id": "1744", "end_station_name": "Morningside Road", "end_station_description": "Corner of Morningside Park, beside M&S", "end_station_latitude": 55.927985349796536, "end_station_longitude": -3.209749771944871}, {"started_at": "2021-06-01 12:03:53.667000+00:00", "ended_at": "2021-06-01 12:25:19.755000+00:00", "duration": 1286, "start_station_id": "1767", "start_station_name": "Bruntsfield Links", "start_station_description": "Corner of Bruntsfield Links next to Public Toilets", "start_station_latitude": 55.937123239991095, "start_station_longitude": -3.206431879393449, "end_station_id": "1818", "end_station_name": "Dynamic Earth", "end_station_description": "Outside Dynamic Earth, Holyrood Road", "end_station_latitude": 55.951089465236365, "end_station_longitude": -3.17572460948655}, {"started_at": "2021-06-01 12:05:18.384000+00:00", "ended_at": "2021-06-01 13:49:55.430000+00:00", "duration": 6277, "start_station_id": "1744", "start_station_name": "Morningside Road", "start_station_description": "Corner of Morningside Park, beside M&S", "start_station_latitude": 55.927985349796536, "start_station_longitude": -3.209749771944871, "end_station_id": "1051", "end_station_name": "Warrender Park Road", "end_station_description": "On corner with Spottiswoode Street", "end_station_latitude": 55.93836921723555, "end_station_longitude": -3.1980326885466184}, {"started_at": "2021-06-01 12:06:41.123000+00:00", "ended_at": "2021-06-01 12:18:33.274000+00:00", "duration": 712, "start_station_id": "264", "start_station_name": "Pollock Halls", "start_station_description": "Pollock Halls Entrance", "start_station_latitude": 55.94008064125911, "start_station_longitude": -3.171746866852459, "end_station_id": "1091", "end_station_name": "Holyrood Road", "end_station_description": "Opposite St Leonards Land", "end_station_latitude": 55.94955950619123, "end_station_longitude": -3.180413257527789}, {"started_at": "2021-06-01 12:09:17.135000+00:00", "ended_at": "2021-06-01 12:41:05.377000+00:00", "duration": 1908, "start_station_id": "264", "start_station_name": "Pollock Halls", "start_station_description": "Pollock Halls Entrance", "start_station_latitude": 55.94008064125911, "start_station_longitude": -3.171746866852459, "end_station_id": "1728", "end_station_name": "Portobello - Kings Road", "end_station_description": "Foot of Kings Road next to the promenade", "end_station_latitude": 55.957915406923476, "end_station_longitude": -3.1183320420902874}, {"started_at": "2021-06-01 12:09:25.562000+00:00", "ended_at": "2021-06-01 12:42:10.811000+00:00", "duration": 1965, "start_station_id": "264", "start_station_name": "Pollock Halls", "start_station_description": "Pollock Halls Entrance", "start_station_latitude": 55.94008064125911, "start_station_longitude": -3.171746866852459, "end_station_id": "1728", "end_station_name": "Portobello - Kings Road", "end_station_description": "Foot of Kings Road next to the promenade", "end_station_latitude": 55.957915406923476, "end_station_longitude": -3.1183320420902874}, {"started_at": "2021-06-01 12:15:19.499000+00:00", "ended_at": "2021-06-01 12:38:24.540000+00:00", "duration": 1385, "start_station_id": "1730", "start_station_name": "East London Street", "start_station_description": "Outside St Mary's Primary School", "start_station_latitude": 55.95995414501485, "start_station_longitude": -3.1871977585476543, "end_station_id": "1730", "end_station_name": "East London Street", "end_station_description": "Outside St Mary's Primary School", "end_station_latitude": 55.95995414501485, "end_station_longitude": -3.1871977585476543}, {"started_at": "2021-06-01 12:21:07.763000+00:00", "ended_at": "2021-06-01 12:57:45.678000+00:00", "duration": 2197, "start_station_id": "1024", "start_station_name": "Meadow Place", "start_station_description": "End of Meadow Place", "start_station_latitude": 55.940237631689435, "start_station_longitude": -3.194640214184801, "end_station_id": "1728", "end_station_name": "Portobello - Kings Road", "end_station_description": "Foot of Kings Road next to the promenade", "end_station_latitude": 55.957915406923476, "end_station_longitude": -3.1183320420902874}, {"started_at": "2021-06-01 12:22:10.578000+00:00", "ended_at": "2021-06-01 12:27:22.652000+00:00", "duration": 312, "start_station_id": "225", "start_station_name": "Waverley Court", "start_station_description": "On Waverley Court forecourt", "start_station_latitude": 55.95173449698344, "start_station_longitude": -3.1841785354060903, "end_station_id": "1028", "end_station_name": "Hunter Square", "end_station_description": "In Hunter Square next to Tron Kirk", "end_station_latitude": 55.949797565633276, "end_station_longitude": -3.1877950320129003}, {"started_at": "2021-06-01 12:22:24.016000+00:00", "ended_at": "2021-06-01 12:30:54.589000+00:00", "duration": 510, "start_station_id": "296", "start_station_name": "Castle Terrace", "start_station_description": "Corner of Castle Terrace and Lady Lawson St", "start_station_latitude": 55.94676648672239, "start_station_longitude": -3.2020378290551434, "end_station_id": "1091", "end_station_name": "Holyrood Road", "end_station_description": "Opposite St Leonards Land", "end_station_latitude": 55.94955950619123, "end_station_longitude": -3.180413257527789}, {"started_at": "2021-06-01 12:22:49.758000+00:00", "ended_at": "2021-06-01 13:20:35.771000+00:00", "duration": 3466, "start_station_id": "264", "start_station_name": "Pollock Halls", "start_station_description": "Pollock Halls Entrance", "start_station_latitude": 55.94008064125911, "start_station_longitude": -3.171746866852459, "end_station_id": "264", "end_station_name": "Pollock Halls", "end_station_description": "Pollock Halls Entrance", "end_station_latitude": 55.94008064125911, "end_station_longitude": -3.171746866852459}, {"started_at": "2021-06-01 12:24:40.068000+00:00", "ended_at": "2021-06-01 12:33:18.574000+00:00", "duration": 518, "start_station_id": "1092", "start_station_name": "Dalry Road Lidl", "start_station_description": "", "start_station_latitude": 55.94179129688128, "start_station_longitude": -3.2224153095964994, "end_station_id": "289", "end_station_name": "Castle Street", "end_station_description": "Near Rose Street", "end_station_latitude": 55.951500737349754, "end_station_longitude": -3.2031839065252825}, {"started_at": "2021-06-01 12:26:20.275000+00:00", "ended_at": "2021-06-01 12:48:52.413000+00:00", "duration": 1352, "start_station_id": "1824", "start_station_name": "Duke Street", "start_station_description": "Junction with Easter Road", "start_station_latitude": 55.96901164826488, "start_station_longitude": -3.16739470303429, "end_station_id": "1728", "end_station_name": "Portobello - Kings Road", "end_station_description": "Foot of Kings Road next to the promenade", "end_station_latitude": 55.957915406923476, "end_station_longitude": -3.1183320420902874}, {"started_at": "2021-06-01 12:26:41.771000+00:00", "ended_at": "2021-06-01 12:45:21.762000+00:00", "duration": 1119, "start_station_id": "253", "start_station_name": "Kings Building 2", "start_station_description": "Sanderson Building", "start_station_latitude": 55.92320215516664, "start_station_longitude": -3.1716462453634904, "end_station_id": "259", "end_station_name": "St Andrew Square", "end_station_description": "North East corner", "end_station_latitude": 55.95490573198223, "end_station_longitude": -3.192443756949956}, {"started_at": "2021-06-01 12:26:44.646000+00:00", "ended_at": "2021-06-01 12:49:02.705000+00:00", "duration": 1338, "start_station_id": "1824", "start_station_name": "Duke Street", "start_station_description": "Junction with Easter Road", "start_station_latitude": 55.96901164826488, "start_station_longitude": -3.16739470303429, "end_station_id": "1728", "end_station_name": "Portobello - Kings Road", "end_station_description": "Foot of Kings Road next to the promenade", "end_station_latitude": 55.957915406923476, "end_station_longitude": -3.1183320420902874}, {"started_at": "2021-06-01 12:30:45.170000+00:00", "ended_at": "2021-06-01 12:34:56.672000+00:00", "duration": 251, "start_station_id": "1024", "start_station_name": "Meadow Place", "start_station_description": "End of Meadow Place", "start_station_latitude": 55.940237631689435, "start_station_longitude": -3.194640214184801, "end_station_id": "171", "end_station_name": "George Square", "end_station_description": "George Square, south side in front of University library", "end_station_latitude": 55.94308406301113, "end_station_longitude": -3.1883110727223993}, {"started_at": "2021-06-01 12:31:26.802000+00:00", "ended_at": "2021-06-01 12:37:27.963000+00:00", "duration": 361, "start_station_id": "1824", "start_station_name": "Duke Street", "start_station_description": "Junction with Easter Road", "start_station_latitude": 55.96901164826488, "start_station_longitude": -3.16739470303429, "end_station_id": "1824", "end_station_name": "Duke Street", "end_station_description": "Junction with Easter Road", "end_station_latitude": 55.96901164826488, "end_station_longitude": -3.16739470303429}, {"started_at": "2021-06-01 12:31:36.012000+00:00", "ended_at": "2021-06-01 12:45:56.580000+00:00", "duration": 860, "start_station_id": "1092", "start_station_name": "Dalry Road Lidl", "start_station_description": "", "start_station_latitude": 55.94179129688128, "start_station_longitude": -3.2224153095964994, "end_station_id": "1039", "end_station_name": "Lothian Road", "end_station_description": "Outside the Usher Hall", "end_station_latitude": 55.947409199207115, "end_station_longitude": -3.2057654971365537}, {"started_at": "2021-06-01 12:33:48.557000+00:00", "ended_at": "2021-06-01 12:48:45.742000+00:00", "duration": 897, "start_station_id": "1824", "start_station_name": "Duke Street", "start_station_description": "Junction with Easter Road", "start_station_latitude": 55.96901164826488, "start_station_longitude": -3.16739470303429, "end_station_id": "2259", "end_station_name": "Leith Walk North", "end_station_description": "Next to Allander House", "end_station_latitude": 55.96791807044289, "end_station_longitude": -3.1735862970647304}, {"started_at": "2021-06-01 12:36:49.636000+00:00", "ended_at": "2021-06-01 13:08:14.432000+00:00", "duration": 1884, "start_station_id": "262", "start_station_name": "Canonmills", "start_station_description": "near Tesco's", "start_station_latitude": 55.96280408759764, "start_station_longitude": -3.196283585062929, "end_station_id": "1721", "end_station_name": "Tollcross", "end_station_description": "Outside Piccolinos off Lauriston Place", "end_station_latitude": 55.944248052468346, "end_station_longitude": -3.2031045991104747}, {"started_at": "2021-06-01 12:37:18.129000+00:00", "ended_at": "2021-06-01 13:13:50.982000+00:00", "duration": 2192, "start_station_id": "262", "start_station_name": "Canonmills", "start_station_description": "near Tesco's", "start_station_latitude": 55.96280408759764, "start_station_longitude": -3.196283585062929, "end_station_id": "1721", "end_station_name": "Tollcross", "end_station_description": "Outside Piccolinos off Lauriston Place", "end_station_latitude": 55.944248052468346, "end_station_longitude": -3.2031045991104747}, {"started_at": "2021-06-01 12:42:42.390000+00:00", "ended_at": "2021-06-01 13:31:17.142000+00:00", "duration": 2914, "start_station_id": "1024", "start_station_name": "Meadow Place", "start_station_description": "End of Meadow Place", "start_station_latitude": 55.940237631689435, "start_station_longitude": -3.194640214184801, "end_station_id": "1728", "end_station_name": "Portobello - Kings Road", "end_station_description": "Foot of Kings Road next to the promenade", "end_station_latitude": 55.957915406923476, "end_station_longitude": -3.1183320420902874}, {"started_at": "2021-06-01 12:42:49.833000+00:00", "ended_at": "2021-06-01 12:50:53.073000+00:00", "duration": 483, "start_station_id": "1757", "start_station_name": "Meggetland", "start_station_description": "Meggetland Sports Complex", "start_station_latitude": 55.92758664038103, "start_station_longitude": -3.2336710530441906, "end_station_id": "1025", "end_station_name": "Dundee Terrace", "end_station_description": "Corner of Dundee Street & Dundee Terrace", "end_station_latitude": 55.93970989541296, "end_station_longitude": -3.2205889336679547}, {"started_at": "2021-06-01 12:46:35.993000+00:00", "ended_at": "2021-06-01 13:06:22.170000+00:00", "duration": 1186, "start_station_id": "1028", "start_station_name": "Hunter Square", "start_station_description": "In Hunter Square next to Tron Kirk", "start_station_latitude": 55.949797565633276, "start_station_longitude": -3.1877950320129003, "end_station_id": "265", "end_station_name": "Meadows East", "end_station_description": "Between Melville Terrace and Sciennes", "end_station_latitude": 55.939809466328285, "end_station_longitude": -3.182738850746432}, {"started_at": "2021-06-01 12:48:38.491000+00:00", "ended_at": "2021-06-01 13:04:02.635000+00:00", "duration": 924, "start_station_id": "358", "start_station_name": "Leith Walk", "start_station_description": "Leith Walk opposite Dalmeny Street", "start_station_latitude": 55.96517649040763, "start_station_longitude": -3.1761801702076298, "end_station_id": "250", "end_station_name": "Victoria Quay", "end_station_description": "Entrance to Scottish Government Office", "end_station_latitude": 55.977617152546344, "end_station_longitude": -3.1741263194576277}, {"started_at": "2021-06-01 12:52:23.733000+00:00", "ended_at": "2021-06-01 13:27:16.531000+00:00", "duration": 2092, "start_station_id": "247", "start_station_name": "Charlotte Square", "start_station_description": "North Corner of Charlotte Square", "start_station_latitude": 55.95233546161639, "start_station_longitude": -3.2071011721072864, "end_station_id": "1102", "end_station_name": "Haymarket Station", "end_station_description": "Haymarket Station", "end_station_latitude": 55.94556945067266, "end_station_longitude": -3.21818468327956}, {"started_at": "2021-06-01 12:57:31.409000+00:00", "ended_at": "2021-06-01 13:17:00.842000+00:00", "duration": 1169, "start_station_id": "249", "start_station_name": "Fountainbridge", "start_station_description": "Fountainbridge by Gardner's Crescent", "start_station_latitude": 55.94335692764551, "start_station_longitude": -3.2092475016246453, "end_station_id": "1757", "end_station_name": "Meggetland", "end_station_description": "Meggetland Sports Complex", "end_station_latitude": 55.92758664038103, "end_station_longitude": -3.2336710530441906}, {"started_at": "2021-06-01 12:57:58.080000+00:00", "ended_at": "2021-06-01 16:06:07.683000+00:00", "duration": 11289, "start_station_id": "1722", "start_station_name": "Cramond Foreshore", "start_station_description": "Near Cramond Beach", "start_station_latitude": 55.980030767403164, "start_station_longitude": -3.300641788832536, "end_station_id": "1722", "end_station_name": "Cramond Foreshore", "end_station_description": "Near Cramond Beach", "end_station_latitude": 55.980030767403164, "end_station_longitude": -3.300641788832536}, {"started_at": "2021-06-01 12:58:25.770000+00:00", "ended_at": "2021-06-01 16:06:14.563000+00:00", "duration": 11268, "start_station_id": "1722", "start_station_name": "Cramond Foreshore", "start_station_description": "Near Cramond Beach", "start_station_latitude": 55.980030767403164, "start_station_longitude": -3.300641788832536, "end_station_id": "1722", "end_station_name": "Cramond Foreshore", "end_station_description": "Near Cramond Beach", "end_station_latitude": 55.980030767403164, "end_station_longitude": -3.300641788832536}, {"started_at": "2021-06-01 13:01:44.941000+00:00", "ended_at": "2021-06-01 14:27:00.177000+00:00", "duration": 5115, "start_station_id": "249", "start_station_name": "Fountainbridge", "start_station_description": "Fountainbridge by Gardner's Crescent", "start_station_latitude": 55.94335692764551, "start_station_longitude": -3.2092475016246453, "end_station_id": "249", "end_station_name": "Fountainbridge", "end_station_description": "Fountainbridge by Gardner's Crescent", "end_station_latitude": 55.94335692764551, "end_station_longitude": -3.2092475016246453}, {"started_at": "2021-06-01 13:01:57.293000+00:00", "ended_at": "2021-06-01 13:24:15.408000+00:00", "duration": 1338, "start_station_id": "1824", "start_station_name": "Duke Street", "start_station_description": "Junction with Easter Road", "start_station_latitude": 55.96901164826488, "start_station_longitude": -3.16739470303429, "end_station_id": "1728", "end_station_name": "Portobello - Kings Road", "end_station_description": "Foot of Kings Road next to the promenade", "end_station_latitude": 55.957915406923476, "end_station_longitude": -3.1183320420902874}, {"started_at": "2021-06-01 13:02:05.384000+00:00", "ended_at": "2021-06-01 13:17:09.510000+00:00", "duration": 904, "start_station_id": "1025", "start_station_name": "Dundee Terrace", "start_station_description": "Corner of Dundee Street & Dundee Terrace", "start_station_latitude": 55.93970989541296, "start_station_longitude": -3.2205889336679547, "end_station_id": "1097", "end_station_name": "Gladstone Terrace", "end_station_description": "Corner of Gladstone Terrace and Sciennes Road", "end_station_latitude": 55.93796327344498, "end_station_longitude": -3.185021145932069}, {"started_at": "2021-06-01 13:02:13.567000+00:00", "ended_at": "2021-06-01 13:43:39.149000+00:00", "duration": 2485, "start_station_id": "1728", "start_station_name": "Portobello - Kings Road", "start_station_description": "Foot of Kings Road next to the promenade", "start_station_latitude": 55.957915406923476, "start_station_longitude": -3.1183320420902874, "end_station_id": "1814", "end_station_name": "Abbeyhill", "end_station_description": "Near Abbey Mount", "end_station_latitude": 55.95524788917224, "end_station_longitude": -3.1722162800950704}, {"started_at": "2021-06-01 13:02:50.221000+00:00", "ended_at": "2021-06-01 13:13:03.049000+00:00", "duration": 612, "start_station_id": "1737", "start_station_name": "Inverleith Row", "start_station_description": "Corner with Inverleith Terrace", "start_station_latitude": 55.964117879889585, "start_station_longitude": -3.2020947474163677, "end_station_id": "1729", "end_station_name": "McDonald Road", "end_station_description": "Next to Fire Station", "end_station_latitude": 55.9640310527501, "end_station_longitude": -3.1851753729504253}, {"started_at": "2021-06-01 13:05:25.125000+00:00", "ended_at": "2021-06-01 13:29:10.961000+00:00", "duration": 1425, "start_station_id": "1725", "start_station_name": "Edinburgh Zoo", "start_station_description": "Corstorphine Road, Edinburgh", "start_station_latitude": 55.94211534619251, "start_station_longitude": -3.2692867654484417, "end_station_id": "1754", "end_station_name": "Murrayfield Tram", "end_station_description": "Next to Murrayfield Tram Station", "end_station_latitude": 55.94191081116495, "end_station_longitude": -3.2378003138226177}, {"started_at": "2021-06-01 13:05:58.238000+00:00", "ended_at": "2021-06-01 14:18:56.316000+00:00", "duration": 4378, "start_station_id": "1744", "start_station_name": "Morningside Road", "start_station_description": "Corner of Morningside Park, beside M&S", "start_station_latitude": 55.927985349796536, "start_station_longitude": -3.209749771944871, "end_station_id": "1728", "end_station_name": "Portobello - Kings Road", "end_station_description": "Foot of Kings Road next to the promenade", "end_station_latitude": 55.957915406923476, "end_station_longitude": -3.1183320420902874}, {"started_at": "2021-06-01 13:06:39.221000+00:00", "ended_at": "2021-06-01 14:18:47.576000+00:00", "duration": 4328, "start_station_id": "1744", "start_station_name": "Morningside Road", "start_station_description": "Corner of Morningside Park, beside M&S", "start_station_latitude": 55.927985349796536, "start_station_longitude": -3.209749771944871, "end_station_id": "1728", "end_station_name": "Portobello - Kings Road", "end_station_description": "Foot of Kings Road next to the promenade", "end_station_latitude": 55.957915406923476, "end_station_longitude": -3.1183320420902874}, {"started_at": "2021-06-01 13:08:25.765000+00:00", "ended_at": "2021-06-01 13:35:38.277000+00:00", "duration": 1632, "start_station_id": "265", "start_station_name": "Meadows East", "start_station_description": "Between Melville Terrace and Sciennes", "start_station_latitude": 55.939809466328285, "start_station_longitude": -3.182738850746432, "end_station_id": "1096", "end_station_name": "West Crosscauseway", "end_station_description": "On island next to Buccleuch Street", "end_station_latitude": 55.9438359841253, "end_station_longitude": -3.1849514084976818}, {"started_at": "2021-06-01 13:10:38.285000+00:00", "ended_at": "2021-06-01 14:03:47.067000+00:00", "duration": 3188, "start_station_id": "1730", "start_station_name": "East London Street", "start_station_description": "Outside St Mary's Primary School", "start_station_latitude": 55.95995414501485, "start_station_longitude": -3.1871977585476543, "end_station_id": "1728", "end_station_name": "Portobello - Kings Road", "end_station_description": "Foot of Kings Road next to the promenade", "end_station_latitude": 55.957915406923476, "end_station_longitude": -3.1183320420902874},